City_ID,City,Lat,Lon,Max Temp,Humidity,Cloudiness,Wind Speed,Country,Date
0,almyros,39.1822,22.7594,301.1,47,75,3.09,GR,1720031101
1,port-aux-francais,-49.35,70.2167,273.42,63,98,2.5,TF,1720031102
2,puerto natales,-51.7236,-72.4875,275.4,75,100,2.06,CL,1720031104
3,san patricio,28.017,-97.5169,307.68,58,53,6.6,US,1720031106
4,sake,-1.5736,29.045,291.21,77,59,0.32,CD,1720031108
5,hermanus,-34.4187,19.2345,285.82,78,51,8.25,ZA,1720031109
6,fort mcmurray,56.7268,-111.381,295.88,56,20,4.63,CA,1720031110
7,edinburgh of the seven seas,-37.0676,-12.3116,285.93,70,40,14.46,SH,1720031112
8,petropavlovsk-kamchatsky,53.0452,158.6483,282.48,100,100,1.0,RU,1720031113
9,badger,64.8,-147.5333,292.29,60,100,5.14,US,1720031114
10,mhamid,29.82,-5.72,314.89,2,0,7.38,MA,1720031116
11,port mathurin,-19.6833,63.4167,296.13,58,87,9.52,MU,1720031117
12,cabo san lucas,22.8909,-109.9124,302.76,58,19,1.79,MX,1720031119
13,gadzhiyevo,69.2551,33.3362,282.7,85,99,5.99,RU,1720031120
14,stanley,54.868,-1.6985,288.92,83,96,4.48,GB,1720031113
15,remire-montjoly,4.9167,-52.2667,302.17,79,20,1.54,GF,1720031123
16,waitangi,-43.9535,-176.5597,279.16,67,100,11.2,NZ,1720031124
17,ushuaia,-54.8,-68.3,275.94,93,100,2.57,AR,1720031126
18,grytviken,-54.2811,-36.5092,269.19,61,4,1.83,GS,1720031127
19,orange walk,17.8333,-88.8333,306.41,49,71,3.4,BZ,1720031130
20,borba,-4.3878,-59.5939,304.86,52,49,2.1,BR,1720031132
21,el calafate,-50.3408,-72.2768,273.58,82,85,4.33,AR,1720031133
22,iqaluit,63.7506,-68.5145,279.0,75,100,5.14,CA,1720031135
23,constantia,44.1833,28.65,295.76,88,81,4.44,RO,1720031136
24,bredasdorp,-34.5322,20.0403,285.48,83,92,6.75,ZA,1720031138
25,tondano,1.3038,124.9112,293.2,97,100,0.73,ID,1720031139
26,tolanaro,-25.0319,46.9987,293.19,77,20,9.26,MG,1720031140
27,blackmans bay,-43.0167,147.3167,278.22,88,11,1.93,AU,1720031142
28,papatowai,-46.5619,169.4708,277.42,90,32,3.59,NZ,1720031143
29,bayanhongor,46.7167,100.1167,284.94,83,100,1.49,MN,1720031145
30,aginskoye,51.1,114.53,294.74,41,100,1.63,RU,1720031146
31,kingston,17.997,-76.7936,298.68,89,100,2.06,JM,1720030937
32,mazagao,-0.115,-51.2894,303.18,53,41,2.71,BR,1720031149
33,enewetak,11.3474,162.3373,301.92,70,98,8.21,MH,1720031150
34,natal,-5.795,-35.2094,299.51,88,75,5.14,BR,1720031078
35,invercargill,-46.4,168.35,275.94,92,35,2.24,NZ,1720031153
36,keflavik,64.0049,-22.5624,287.1,87,100,6.69,IS,1720031155
37,thompson,55.7435,-97.8558,290.24,77,100,4.12,CA,1720031156
38,canutama,-6.5339,-64.3831,309.89,28,57,1.1,BR,1720031158
39,dumai,1.6833,101.45,298.08,97,90,1.24,ID,1720031159
40,penhalonga,-18.8911,32.6978,285.11,43,2,0.55,ZW,1720031160
41,george town,5.4112,100.3354,300.9,79,20,0.0,MY,1720030918
42,nar'yan-mar,67.6713,53.087,289.4,73,67,2.29,RU,1720031163
43,hamilton,39.1834,-84.5333,305.92,64,40,6.17,US,1720031165
44,bonthe,7.5264,-12.505,298.87,82,49,4.25,SL,1720031166
45,udachny,66.4167,112.4,281.09,55,4,1.68,RU,1720031168
46,qaqortoq,60.7167,-46.0333,278.94,74,23,1.92,GL,1720031169
47,aasiaat,68.7098,-52.8699,276.38,84,70,2.23,GL,1720031170
48,adamstown,-25.066,-130.1015,293.92,61,100,3.87,PN,1720031172
49,talnakh,69.4865,88.3972,285.95,58,97,4.23,RU,1720031173
50,bethel,41.3712,-73.414,301.96,45,0,4.63,US,1720031175
51,huarmey,-10.0681,-78.1522,293.6,72,55,3.45,PE,1720031176
52,margaret river,-33.95,115.0667,282.18,89,2,3.9,AU,1720031178
53,ciudad bolivar,8.1222,-63.5497,307.21,45,44,1.5,VE,1720031179
54,vadso,70.0744,29.7487,281.24,76,75,4.63,NO,1720031180
55,pamekasan,-7.1568,113.4746,298.5,87,100,3.96,ID,1720031182
56,ribeira grande,38.5167,-28.7,298.37,53,20,4.92,PT,1720031183
57,lebu,-37.6167,-73.65,283.45,65,100,4.4,CL,1720031185
58,ar rutbah,33.0381,40.2848,304.32,17,0,2.51,IQ,1720031186
59,labuan,5.2767,115.2417,299.35,94,20,0.0,MY,1720031188
60,kodiak,57.79,-152.4072,282.88,87,100,1.54,US,1720031189
61,atbasar,51.8,68.3333,287.8,91,39,4.12,KZ,1720031190
62,saipan,15.1355,145.701,301.54,83,20,3.6,MP,1720031192
63,ross on wye,51.9167,-2.5667,292.53,79,100,2.24,GB,1720031193
64,pahrump,36.2083,-115.9839,312.18,8,0,0.89,US,1720031195
65,tabas,33.5959,56.9244,314.27,12,54,3.09,IR,1720031196
66,labrador city,52.9463,-66.9114,294.92,53,100,2.57,CA,1720031198
67,prince albert,53.2001,-105.7677,297.12,53,75,6.69,CA,1720031142
68,albany,42.6001,-73.9662,301.99,50,39,0.89,US,1720031004
69,rikaze,29.25,88.8833,285.49,79,100,2.0,CN,1720031202
70,paita,-5.0892,-81.1144,294.96,71,15,4.53,PE,1720031205
71,rusera,25.75,86.0333,301.4,85,100,5.13,IN,1720031206
72,jamestown,42.097,-79.2353,303.92,60,75,6.17,US,1720030987
73,port elizabeth,-33.918,25.5701,287.31,82,0,5.14,ZA,1720031209
74,wailua homesteads,22.0669,-159.378,298.59,79,20,5.14,US,1720031211
75,bilibino,68.0546,166.4372,285.39,71,46,1.29,RU,1720031212
76,bhimbar,32.9757,74.0793,307.37,57,9,8.15,PK,1720031213
77,tiksi,71.6872,128.8694,276.97,85,98,1.89,RU,1720031215
78,prince george,53.9166,-122.753,289.98,59,100,2.57,CA,1720031216
79,nikolayevsk-on-amure,53.1406,140.73,292.16,74,14,1.14,RU,1720031218
80,anadyr,64.75,177.4833,286.43,82,0,6.0,RU,1720031219
81,chonchi,-42.6128,-73.8092,280.44,72,71,4.14,CL,1720031221
82,puerto deseado,-47.7503,-65.8938,278.62,50,67,10.23,AR,1720031222
83,puerto rico,-26.796,-55.024,299.39,55,100,0.48,AR,1720031223
84,ilulissat,69.2167,-51.1,278.16,81,40,2.57,GL,1720031225
85,cabedelo,-6.9811,-34.8339,300.52,75,77,7.82,BR,1720031226
86,nemuro,43.3236,145.575,287.67,79,21,0.84,JP,1720031228
87,lorengau,-2.0226,147.2712,299.0,83,100,3.95,PG,1720031229
88,opuwo,-18.0607,13.84,293.23,16,41,2.96,,1720031231
89,mahibadhoo,3.7833,72.9667,301.19,77,100,5.1,MV,1720031232
90,mili,6.0815,171.735,301.63,80,96,7.7,MH,1720031233
91,irece,-11.3042,-41.8558,301.93,28,37,5.7,BR,1720031235
92,east london,-33.0153,27.9116,286.67,94,0,1.03,ZA,1720031236
93,port isabel,26.0734,-97.2086,307.6,63,40,7.72,US,1720030920
94,priob'ye,62.5206,65.5964,293.38,73,77,2.4,RU,1720031239
95,velyka oleksandrivka,47.3197,33.3037,299.36,29,7,3.69,UA,1720031241
96,springs,-26.25,28.4,287.41,34,0,3.61,ZA,1720031242
97,betio village,1.358,172.9211,299.17,74,100,7.69,KI,1720031243
98,college,64.8569,-147.8028,292.33,57,100,5.14,US,1720031245
99,belmonte,-15.8631,-38.8828,299.23,53,27,3.05,BR,1720031246
100,camana,-16.6228,-72.7111,290.29,72,60,2.46,PE,1720031248
101,sulejow,51.3544,19.8854,291.03,68,100,1.85,PL,1720031249
102,yantzaza,-3.8278,-78.7594,302.22,52,31,1.4,EC,1720031251
103,kiunga,-6.1219,141.2906,296.7,99,100,1.06,PG,1720031252
104,la passe,45.5549,-0.8967,293.28,78,80,5.9,FR,1720031254
105,kikwit,-5.041,18.8162,300.85,25,65,0.79,CD,1720031255
106,quitilipi,-26.8691,-60.2168,302.32,37,19,1.15,AR,1720031257
107,darwin,-12.4611,130.8418,295.14,52,39,5.14,AU,1720030998
108,salalah,17.0151,54.0924,302.2,89,100,4.12,OM,1720031260
109,inverloch,-38.6333,145.7167,282.05,91,12,3.67,AU,1720031261
110,anshun,26.25,105.9333,291.8,93,100,7.43,CN,1720031263
111,cascais,38.6979,-9.4215,298.85,55,20,9.26,PT,1720031264
112,kapa'a,22.0752,-159.319,299.33,77,20,5.14,US,1720031266
113,isafjordur,66.0755,-23.124,280.17,81,100,7.2,IS,1720031267
114,lospalos,-8.5186,127.0025,293.81,87,53,3.34,TL,1720031268
115,solleftea,63.1667,17.2667,292.07,65,90,1.71,SE,1720031270
116,quelimane,-17.8786,36.8883,297.12,83,40,2.1,MZ,1720031271
117,sungailiat,-1.85,106.1333,299.79,86,94,3.55,ID,1720031273
118,tamanrasset,22.785,5.5228,307.1,13,0,1.54,DZ,1720031274
119,jozefow,52.1371,21.2359,293.73,65,0,1.03,PL,1720031276
120,pandan,14.0453,124.1694,300.71,84,71,2.22,PH,1720031277
121,aykhal,66.0,111.5,280.13,60,26,0.95,RU,1720031278
122,pangai,-19.8,-174.35,298.21,88,20,6.17,TO,1720031280
123,fort bragg,35.139,-79.006,305.48,46,20,4.12,US,1720031281
124,yuzhno-kurilsk,44.0306,145.8556,288.69,72,47,1.04,RU,1720031283
125,nadi,-17.8,177.4167,295.15,83,20,2.57,FJ,1720031284
126,danielskuil,-28.1887,23.5395,283.0,30,0,5.94,ZA,1720031286
127,elliot lake,46.3834,-82.6331,294.51,75,98,4.85,CA,1720031287
128,callaway,30.153,-85.5699,305.92,72,40,4.63,US,1720031288
129,port macquarie,-31.4333,152.9167,284.86,97,92,0.89,AU,1720031290
130,villazon,-22.0866,-65.5942,290.39,4,0,2.15,BO,1720031291
131,hwado,37.6525,127.3075,298.1,98,72,1.57,KR,1720031293
132,sao vicente,-23.9631,-46.3919,304.25,42,0,2.57,BR,1720031294
133,salinas,36.6777,-121.6555,306.23,61,0,3.09,US,1720031167
134,grand falls-windsor,48.9332,-55.6649,302.87,39,0,1.34,CA,1720031111
135,suwayr,30.1171,40.3893,305.67,13,0,4.5,SA,1720031299
136,tame,6.461,-71.73,301.32,71,90,1.48,CO,1720031300
137,puerto ayora,-0.7393,-90.3518,300.13,79,49,3.13,EC,1720031302
138,klyuchi,52.2667,79.1667,292.62,61,99,2.44,RU,1720031303
139,khandyga,62.6667,135.6,288.05,74,67,1.47,RU,1720031304
140,fortuna,40.5982,-124.1573,292.66,67,0,4.63,US,1720031306
141,crane,31.3974,-102.3501,308.35,32,0,6.93,US,1720031307
142,namtsy,62.7161,129.6658,288.25,57,61,5.78,RU,1720031309
143,olonkinbyen,70.9221,-8.7187,274.9,94,74,7.98,SJ,1720031310
144,necochea,-38.5473,-58.7368,282.45,49,97,3.3,AR,1720031031
145,hinthada,17.6333,95.4667,298.43,91,100,3.8,MM,1720031316
146,hawaiian paradise park,19.5933,-154.9731,299.14,85,0,0.0,US,1720031317
147,dwarka,22.2394,68.9678,302.29,84,100,8.5,IN,1720031319
148,suoyarvi,62.0833,32.35,285.78,96,100,4.15,RU,1720031320
149,guajara mirim,-10.7828,-65.3394,305.24,45,20,2.57,BR,1720031321
150,polyarnyy,69.1989,33.4478,282.63,86,98,6.0,RU,1720031323
151,agat village,13.3886,144.6585,300.67,91,0,3.6,GU,1720031324
152,hami,42.8,93.45,297.31,35,46,3.54,CN,1720031326
153,port lincoln,-34.7333,135.8667,284.83,73,30,6.53,AU,1720031327
154,iskateley,67.6803,53.1512,289.4,73,67,2.27,RU,1720031329
155,berdigestyakh,62.0989,126.6992,285.86,74,74,2.63,RU,1720031331
156,utrik,11.2278,169.8474,301.02,81,99,8.01,MH,1720031333
157,mareeba,-17.0,145.4333,291.73,88,56,1.08,AU,1720031334
158,richmond,37.5538,-77.4603,304.26,53,75,3.6,US,1720031043
159,jyvaskyla,62.2415,25.7209,291.34,75,85,0.51,FI,1720031337
160,punta arenas,-53.15,-70.9167,274.21,80,100,5.66,CL,1720031051
161,alice springs,-23.7,133.8833,271.9,93,0,2.57,AU,1720031340
162,sur,22.5667,59.5289,307.75,47,6,6.5,OM,1720031342
163,jacksonville,30.3322,-81.6556,308.72,63,0,4.63,US,1720030873
164,mount pearl,47.5166,-52.7813,290.07,85,75,5.14,CA,1720031345
165,vorgashor,67.5833,63.95,286.13,92,94,3.03,RU,1720031346
166,cill airne,52.05,-9.5167,288.18,72,75,3.6,IE,1720031347
167,djibo,14.1022,-1.6306,301.5,54,100,6.28,BF,1720031349
168,magdagachi,53.45,125.8,295.53,53,32,1.06,RU,1720031350
169,lompoc,34.6391,-120.4579,300.84,58,0,3.6,US,1720031352
170,tazacorte,28.629,-17.9293,294.9,86,75,6.17,ES,1720031353
171,el granada,37.5027,-122.4694,308.86,43,0,2.57,US,1720031355
172,gumrak,48.7826,44.3824,299.1,47,0,5.0,RU,1720031356
173,leninskoye,41.7589,69.3864,294.62,29,0,3.08,KZ,1720031358
174,luganville,-15.5333,167.1667,296.37,83,52,2.12,VU,1720031359
175,rovaniemi,66.5,25.7167,289.82,63,0,1.03,FI,1720031360
176,langzhong,31.5504,105.9938,294.56,89,94,0.37,CN,1720031362
177,usinsk,65.9939,57.5281,290.23,75,89,2.78,RU,1720031363
178,yellowknife,62.456,-114.3525,290.6,50,75,6.71,CA,1720031365
179,lihue,21.9789,-159.3672,298.92,76,20,5.14,US,1720031337
180,forbes,-33.3833,148.0167,277.55,89,2,2.89,AU,1720031368
181,carnarvon,-24.8667,113.6333,289.54,46,0,9.37,AU,1720031369
182,pangody,65.85,74.4859,289.46,52,100,6.79,RU,1720031370
183,tsiombe,-25.3,45.4833,294.4,60,31,4.75,MG,1720031372
184,hassi messaoud,31.6804,6.0729,311.07,16,0,2.06,DZ,1720031373
185,ketchikan,55.3422,-131.6461,288.34,67,100,4.12,US,1720031375
186,boden,65.8252,21.6886,289.15,90,85,1.73,SE,1720031376
187,tallahassee,30.4383,-84.2807,307.06,61,75,2.57,US,1720031197
188,prince rupert,54.3161,-130.3201,287.2,81,75,4.63,CA,1720031379
189,cold lake,54.4502,-110.2017,294.12,68,75,6.69,CA,1720031362
190,"laikit, laikit ii (dimembe)",1.4792,124.9735,295.62,100,40,2.06,ID,1720031383
191,alaghsas,17.0187,8.0168,309.09,30,20,3.09,NE,1720031385
192,balabac,7.9868,117.0645,300.12,87,99,3.47,PH,1720031386
193,magong,23.5654,119.5863,302.32,84,0,2.59,TW,1720031388
194,viedma,-40.8135,-62.9967,283.97,29,0,9.28,AR,1720031389
195,al jawf,29.5,38.75,303.04,11,0,3.89,SA,1720031390
196,yashkino,55.8736,85.4265,289.31,91,100,0.98,RU,1720031392
197,sandbach,53.1451,-2.3625,290.65,53,86,2.68,GB,1720031393
198,colonia,50.9333,6.95,289.96,73,40,4.63,DE,1720031168
199,sandnessjoen,66.0217,12.6316,286.44,76,75,3.6,NO,1720031396
200,jiuquan,39.7432,98.5174,291.76,56,100,12.18,CN,1720031397
201,greenfield,42.9614,-88.0126,302.14,59,40,5.14,US,1720031102
202,susuman,62.7833,148.1667,283.19,90,69,0.3,RU,1720031400
203,lata,40.1629,-8.3327,300.33,57,16,2.01,PT,1720031402
204,west island,-12.1568,96.8225,301.14,83,75,8.23,CC,1720031403
205,kruisfontein,-34.0033,24.7314,285.86,65,100,2.42,ZA,1720031405
206,tengrela,10.4869,-6.4097,300.5,64,100,2.35,CI,1720031406
207,mumbwa,-14.9783,27.0619,289.75,40,4,1.93,ZM,1720031407
208,bikenibeu village,1.3673,173.1241,299.13,89,100,3.09,KI,1720031409
209,celestun,20.8667,-90.4,305.33,58,0,4.59,MX,1720031410
210,campbell river,50.0163,-125.2446,291.36,59,20,1.54,CA,1720031309
211,tura,25.5198,90.2201,297.63,97,100,3.22,IN,1720031413
212,dhankuta,26.9833,87.3333,294.26,91,100,1.1,NP,1720031415
213,nacala,-14.5428,40.6728,296.08,68,28,2.39,MZ,1720031416
214,tomatlan,19.9333,-105.25,304.79,55,26,3.85,MX,1720031417
215,dunedin,-45.8742,170.5036,275.82,83,29,2.72,NZ,1720031419
216,harnoli,32.2792,71.5539,315.19,25,0,6.67,PK,1720031420
217,flying fish cove,-10.4217,105.6791,298.97,94,100,4.63,CX,1720031340
218,nagqu,31.5,92.0,279.48,89,100,0.76,CN,1720031423
219,tangalle,6.024,80.7911,301.24,89,52,3.58,LK,1720031425
220,revda,56.801,59.9303,290.79,91,10,1.43,RU,1720031426
221,katsuura,35.1333,140.3,296.7,95,100,5.53,JP,1720031428
222,hollymead,38.1171,-78.4417,305.56,52,0,4.12,US,1720031429
223,kenai,60.5544,-151.2583,286.2,79,0,7.2,US,1720031430
224,shenjiamen,29.9576,122.298,298.2,91,5,7.97,CN,1720031433
225,malango,-2.9627,119.9001,292.67,100,100,0.97,ID,1720031435
226,kamiiso,41.8167,140.65,291.36,82,100,1.03,JP,1720031436
227,georgievka,49.3314,81.5761,290.5,61,100,4.88,KZ,1720031438
228,iquitos,-3.7481,-73.2472,302.17,74,75,2.57,PE,1720031412
229,sompeta,18.9333,84.6,302.34,75,100,3.77,IN,1720031440
230,carinhanha,-14.3047,-43.765,303.42,20,0,3.18,BR,1720031442
231,codrington,-38.2667,141.9667,277.13,90,0,2.37,AU,1720031443
232,nelson bay,-32.7167,152.15,289.26,64,99,0.89,AU,1720031445
233,nova vicosa,-17.8919,-39.3719,299.02,57,0,4.13,BR,1720031448
234,inarajan village,13.2736,144.7484,300.69,92,99,5.63,GU,1720031449
235,st. john's,47.5649,-52.7093,290.53,85,75,5.14,CA,1720031178
236,choele choel,-39.2667,-65.6833,286.52,19,0,10.71,AR,1720031452
237,berezovyy,51.6667,135.7,294.99,62,0,2.1,RU,1720031454
238,karratha,-20.7377,116.8463,291.47,27,0,9.28,AU,1720031455
239,palo santo,-25.5633,-59.3378,304.68,30,5,3.86,AR,1720031456
240,san antonio de pale,-1.4014,5.6325,296.86,82,100,5.15,GQ,1720031458
241,freetown,8.484,-13.2299,297.99,83,75,4.63,SL,1720031459
242,zhangye,38.9342,100.4517,298.16,33,100,9.42,CN,1720031461
243,norrtalje,59.758,18.705,289.83,90,87,2.39,SE,1720031462
244,lloydminster,53.2835,-110.0016,294.27,73,75,5.66,CA,1720031464
245,lukolela,-1.0605,17.1821,299.22,54,100,0.76,CD,1720031465
246,kaa-khem,51.6833,94.7333,290.27,84,100,1.02,RU,1720031467
247,torbat-e heydariyeh,35.274,59.2195,298.33,17,66,4.33,IR,1720031172
248,san-pedro,4.7485,-6.6363,297.7,81,100,4.9,CI,1720031470
249,kapuskasing,49.4169,-82.4331,293.2,82,100,6.69,CA,1720031471
250,palmerston,-12.486,130.9833,295.14,52,2,5.14,AU,1720031473
251,labytnangi,66.6572,66.4183,286.85,87,93,3.22,RU,1720031474
252,kerikeri,-35.2268,173.9474,278.66,93,0,1.34,NZ,1720031476
253,la'ie,21.6477,-157.9253,298.4,82,88,2.68,US,1720031477
254,katsuren-haebaru,26.3369,127.8719,302.16,95,0,2.57,JP,1720031478
255,kavaratti,10.5669,72.642,301.22,86,70,6.34,IN,1720031480
256,narvik,68.4384,17.4272,286.14,92,78,1.41,NO,1720031481
257,haiku-pauwela,20.9219,-156.3051,299.4,71,20,3.58,US,1720031483
258,xilin hot,43.9667,116.0333,291.36,23,100,3.17,CN,1720031484
259,saint-francois,46.4154,3.9054,292.84,56,0,2.57,FR,1720031485
260,vilyuchinsk,52.9306,158.4028,283.3,98,100,2.96,RU,1720031487
261,sheridan,44.8333,-106.9173,292.36,52,100,4.63,US,1720031488
262,puerto armuelles,8.2833,-82.8667,298.76,88,100,1.34,PA,1720031490
263,chernomorskoye,45.5039,32.6997,297.26,63,33,4.03,UA,1720031491
264,kralendijk,12.15,-68.2667,306.14,58,40,7.2,BQ,1720031493
265,klaksvik,62.2266,-6.589,283.66,96,100,11.95,FO,1720031494
266,ola,59.5833,151.2833,285.54,82,15,0.86,RU,1720031495
267,troitsk,54.0979,61.5773,291.94,80,23,2.13,RU,1720031497
268,ust-nera,64.5667,143.2,289.23,68,80,1.6,RU,1720031498
269,warnes,-17.5,-63.1667,304.42,42,20,7.72,BO,1720031500
270,sinop,41.7711,34.8709,294.35,49,94,3.47,TR,1720031501
271,alotau,-10.3069,150.4462,296.97,96,100,1.92,PG,1720031502
272,kolobrzeg,54.1757,15.5834,290.91,56,99,3.66,PL,1720031504
273,swiecie,53.4095,18.4474,290.32,63,93,2.21,PL,1720031505
274,conduaga,8.862,117.4893,298.53,85,99,1.67,PH,1720031507
275,fale old settlement,-9.3852,-171.2468,301.77,78,18,10.54,TK,1720031508
276,christchurch,-43.5333,172.6333,275.32,84,22,0.51,NZ,1720031510
277,burton upon trent,52.8073,-1.6426,292.06,72,15,5.85,GB,1720031511
278,longyearbyen,78.2186,15.6401,284.06,58,0,4.12,SJ,1720031512
279,lai chau,22.3997,103.4517,291.02,99,100,0.57,VN,1720031514
280,lepsy,46.235,78.9456,296.03,38,14,3.72,KZ,1720031515
281,la ronge,55.1001,-105.2842,298.27,46,40,5.14,CA,1720031517
282,the pas,53.8251,-101.2541,299.16,50,0,3.6,CA,1720031518
283,kismayo,-0.3582,42.5454,298.69,81,100,7.14,SO,1720031519
284,smithers,54.7804,-127.1743,291.33,45,20,4.63,CA,1720031521
285,borogontsy,62.6683,131.1683,287.38,65,1,4.42,RU,1720031522
286,port alfred,-33.5906,26.891,288.73,69,61,5.67,ZA,1720031524
287,arraial do cabo,-22.9661,-42.0278,299.13,61,0,3.09,BR,1720031525
288,maintirano,-18.0667,44.0167,296.12,60,0,2.62,MG,1720031527
289,vernon,50.2581,-119.2691,297.55,39,0,1.54,CA,1720031358
290,vennesla,58.2694,7.9741,286.83,69,75,6.17,NO,1720031530
291,dakhla,23.6848,-15.958,293.16,83,8,8.75,EH,1720031531
292,queenstown,-31.8976,26.8753,283.89,30,11,4.91,ZA,1720031413
293,protaras,35.0125,34.0583,300.37,84,0,2.24,CY,1720031534
294,bathsheba,13.2167,-59.5167,301.49,83,20,10.29,BB,1720031535
295,castillos,-34.1667,-53.8333,283.25,65,100,3.64,UY,1720031537
296,perigueux,45.1833,0.7167,294.69,58,97,0.45,FR,1720031538
297,gejiu,23.306,103.1635,288.41,97,100,1.86,CN,1720031540
298,maksatikha,57.797,35.8825,289.46,88,55,2.34,RU,1720031541
299,saint-denis,48.9167,2.3333,293.58,55,100,6.69,FR,1720031543
300,sitka,57.0531,-135.33,286.09,82,75,2.57,US,1720031544
301,dmitrovsk-orlovskiy,52.505,35.1464,295.29,78,100,4.27,RU,1720031545
302,taoudenni,22.6783,-3.9836,315.25,5,0,4.76,ML,1720031547
303,boca do acre,-8.7522,-67.3978,308.69,31,0,0.38,BR,1720031548
304,yuzhno-sakhalinsk,46.9581,142.7337,288.94,82,100,3.0,RU,1720031550
305,lluta,-16.0147,-72.0142,287.56,25,3,4.36,PE,1720031551
306,yuza,39.0,139.9167,295.78,97,100,5.13,JP,1720031552
307,arrifes,37.7667,-25.7,294.29,68,75,5.14,PT,1720031555
308,usogorsk,63.4106,48.6872,292.89,92,21,3.21,RU,1720031557
309,namibe,-15.1961,12.1522,290.7,81,71,3.61,AO,1720031558
310,alamosa,37.4695,-105.87,299.14,29,20,2.06,US,1720031560
311,luderitz,-26.6481,15.1594,286.8,79,1,5.09,,1720031561
312,erenhot,43.6475,111.9767,295.47,30,100,1.37,CN,1720031562
313,ta`u,-14.2336,-169.5144,300.42,80,9,11.16,AS,1720031564
314,san julian,21.0167,-102.1667,297.53,43,96,3.48,MX,1720031566
315,tazovsky,67.4667,78.7,286.54,57,100,8.2,RU,1720031531
316,caleta olivia,-46.4393,-67.5281,278.98,48,61,17.46,AR,1720031393
317,sebastopol,44.6,33.5333,297.59,56,48,2.26,UA,1720031570
318,kayangel,8.0823,134.7173,302.0,73,100,4.3,PW,1720031571
319,gunjur,13.2019,-16.7339,304.19,62,40,3.6,GM,1720031574
320,jayapura,-2.5333,140.7,296.81,93,82,1.95,ID,1720031576
321,ciudad sabinas hidalgo,26.5,-100.1667,308.27,38,0,4.37,MX,1720031467
322,walvis bay,-22.9575,14.5053,287.68,77,0,1.03,,1720031578
323,mala bilozerka,47.2474,34.9346,297.08,30,14,3.43,UA,1720031580
324,baotou,40.6522,109.8222,295.75,48,0,1.64,CN,1720031581
325,nova sintra,14.8667,-24.7167,298.64,86,99,7.68,CV,1720031583
326,nuku'alofa,-21.1333,-175.2,296.34,100,20,1.54,TO,1720031584
327,praia da vitoria,38.7333,-27.0667,296.29,64,40,3.53,PT,1720031585
328,island harbour,50.724,-1.2758,292.21,80,99,4.47,GB,1720031588
329,nadym,65.5333,72.5167,287.67,82,100,5.55,RU,1720031590
330,puerto madryn,-42.7692,-65.0385,282.01,45,29,11.73,AR,1720031386
331,dudinka,69.4058,86.1778,287.28,56,100,7.08,RU,1720031593
332,aldinga beach,-35.2793,138.4604,283.96,76,12,4.91,AU,1720031594
333,mount isa,-20.7333,139.5,282.02,53,0,4.12,AU,1720031595
334,acarau,-2.8856,-40.12,301.59,73,24,5.81,BR,1720031597
335,geraldton,-28.7667,114.6,283.38,71,0,3.6,AU,1720031598
336,mount gambier,-37.8333,140.7667,276.46,92,1,2.24,AU,1720031600
337,ribeira brava,32.65,-17.0667,297.43,80,4,3.03,PT,1720031601
338,new norfolk,-42.7826,147.0587,278.87,97,7,1.13,AU,1720031603
339,francistown,-21.17,27.5079,290.72,25,4,3.35,BW,1720031604
340,chinde,26.8418,88.0763,293.24,94,100,1.71,NP,1720031605
341,taroa,8.7058,171.2275,301.34,81,98,8.37,MH,1720031607
342,taro,-8.3862,115.28,295.15,100,99,0.76,ID,1720031608
343,boguchany,58.3814,97.4531,294.07,67,100,2.93,RU,1720031532
344,newman,37.3138,-121.0208,306.34,7,0,2.13,US,1720031611
345,jianshui,23.6363,102.8264,293.22,98,100,1.75,CN,1720031612
346,saint-joseph,-21.3667,55.6167,292.36,83,55,6.61,RE,1720031614
347,karaton,-6.3424,106.1045,296.18,97,90,0.75,ID,1720031615
348,urengoy,65.9667,78.3667,289.04,49,100,6.0,RU,1720031617
349,afaahiti,-17.75,-149.2833,298.08,79,33,9.8,PF,1720031618
350,coquimbo,-29.9533,-71.3436,293.14,50,0,5.14,CL,1720031620
351,manokwari,-0.8667,134.0833,298.48,78,43,1.74,ID,1720031621
352,guaratuba,-25.8828,-48.5747,305.4,64,83,1.72,BR,1720031568
353,ponta delgada,37.7333,-25.6667,295.55,68,75,5.14,PT,1720031624
354,paradip garh,20.3167,86.6167,301.07,85,100,4.73,IN,1720031625
355,challakere,14.3167,76.65,297.63,74,70,8.13,IN,1720031627
356,fraserburgh,57.6874,-2.0184,287.83,83,100,9.12,GB,1720031628
357,sangamner,19.5667,74.2167,298.85,80,100,4.12,IN,1720031629
358,luanco,43.6152,-5.7934,294.52,75,0,2.24,ES,1720031631
359,kenmore,47.7573,-122.244,294.45,67,0,0.89,US,1720031632
360,portage la prairie,49.9728,-98.2926,295.43,59,75,3.6,CA,1720031634
361,rongelap,11.1635,166.8941,301.53,70,74,7.84,MH,1720031635
362,vila franca do campo,37.7167,-25.4333,295.38,80,97,2.47,PT,1720031637
363,north bend,43.4065,-124.2243,297.74,67,0,8.23,US,1720031638
364,shanwei,22.782,115.3475,301.32,86,18,3.38,CN,1720031639
365,nouadhibou,20.931,-17.0347,297.14,64,0,8.23,MR,1720031641
366,avarua,-21.2078,-159.775,297.18,83,75,5.14,CK,1720031642
367,tarumovka,44.0761,46.5361,295.08,62,6,5.49,RU,1720031644
368,nasarawa,8.5294,7.7242,297.01,94,77,3.42,NG,1720031645
369,conception bay south,47.4999,-52.9981,290.4,83,100,3.0,CA,1720031582
370,uturoa,-16.7333,-151.4333,299.18,71,23,10.6,PF,1720031648
371,hammerfest,70.6634,23.6821,281.4,100,75,1.54,NO,1720031649
372,saint-philippe,-21.3585,55.7679,292.92,86,87,6.45,RE,1720031651
373,kosh-agach,50.0,88.6667,282.14,78,99,2.08,RU,1720031652
374,sumbawa besar,-8.5,117.4333,294.91,93,98,1.92,ID,1720031654
375,jaru,-10.4389,-62.4664,308.31,26,5,1.44,BR,1720031655
376,ust'-kut,56.7938,105.7672,290.43,97,64,1.5,RU,1720031656
377,black point,-34.6187,137.8972,284.08,69,100,6.01,AU,1720031658
378,kamina,-8.7386,24.9906,292.07,37,9,1.98,CD,1720031659
379,tejen,37.3834,60.5054,302.66,15,0,2.67,TM,1720031661
380,boende,-0.2167,20.8667,299.69,60,74,0.6,CD,1720031662
381,gimcheon,36.1218,128.1198,296.77,100,0,1.03,KR,1720031664
382,aktau,43.65,51.2,301.47,38,39,3.68,KZ,1720031665
383,yeppoon,-23.1333,150.7333,289.96,79,100,7.52,AU,1720031667
384,whitehorse,60.7161,-135.0538,286.93,81,100,1.54,CA,1720031614
385,mahina,-17.5065,-149.489,300.02,61,20,1.54,PF,1720031669
386,hell-ville,-13.4,48.2667,298.52,72,14,0.97,MG,1720031671
387,bismarck,46.8083,-100.7837,297.95,54,20,6.69,US,1720031672
388,bel ombre,-4.6167,55.4167,300.06,83,75,8.23,SC,1720031674
389,mandera,3.9366,41.867,301.59,53,5,7.43,KE,1720031675
390,al jumum,21.6169,39.6981,306.79,27,100,2.36,SA,1720031677
391,timbuktu,16.7735,-3.0074,304.2,48,81,7.39,ML,1720031678
392,banamba,13.55,-7.45,305.37,45,100,7.34,ML,1720031679
393,kalabo,-14.97,22.6814,290.63,25,0,1.89,ZM,1720031682
394,tokar,18.4254,37.729,308.77,37,82,5.93,SD,1720031685
395,puerto baquerizo moreno,-0.9,-89.6,298.7,89,40,2.57,EC,1720031407
396,novyy urgal,51.0736,132.5642,290.01,78,0,0.75,RU,1720031688
397,as sulayyil,20.4607,45.5779,308.29,9,16,5.36,SA,1720031689
398,shelby,35.2001,-89.8668,309.34,56,75,2.57,US,1720031691
399,tucuma,-0.1833,-50.05,300.62,81,39,4.37,BR,1720031692
400,zapolyarnyy,69.4154,30.8136,279.75,91,100,3.87,RU,1720031694
401,mercedes,-34.6515,-59.4307,285.9,40,100,3.06,AR,1720031695
402,jacobina,-11.1806,-40.5183,301.02,38,17,4.05,BR,1720031697
403,jaleshwar,26.6471,85.8008,301.27,83,100,7.17,NP,1720031698
404,grado,43.388,-6.0743,294.08,77,0,2.06,ES,1720031700
405,coahuayana de hidalgo,18.7,-103.6583,301.03,72,90,0.74,MX,1720031701
406,chibougamau,49.9168,-74.3659,288.94,94,100,6.17,CA,1720031702
407,agbor,6.2518,6.1934,295.59,99,100,2.24,NG,1720031705
408,timmins,48.4669,-81.3331,294.05,73,100,4.12,CA,1720031453
409,greenville,35.6127,-77.3663,304.89,41,0,2.06,US,1720031656
410,palmer,42.1584,-72.3287,302.32,39,75,5.14,US,1720031710
411,kavieng,-2.5744,150.7967,299.57,80,100,2.82,PG,1720031711
412,rio verde de mato grosso,-18.9181,-54.8442,306.02,18,0,2.18,BR,1720031713
413,santa ana,33.7456,-117.8678,305.74,64,20,3.09,US,1720031415
414,oamaru,-45.0784,170.9801,275.03,81,8,2.59,NZ,1720031716
415,itamaraca,-7.7478,-34.8256,301.18,71,33,5.33,BR,1720031717
416,mombasa,-4.0547,39.6636,296.38,83,20,2.57,KE,1720031719
417,san,13.3034,-4.8956,296.27,92,100,2.97,ML,1720031720
418,lerwick,60.1545,-1.1494,284.15,98,100,7.96,GB,1720031721
419,ocean shores,46.9737,-124.1563,289.24,80,100,2.57,US,1720031723
420,xiva,41.3783,60.3639,296.14,19,0,4.79,UZ,1720031724
421,kirakira,-10.4544,161.9205,298.73,83,64,5.18,SB,1720031726
422,funafuti,-8.5243,179.1942,302.15,89,75,7.2,TV,1720031727
423,barra da estiva,-13.6261,-41.3269,296.46,41,4,4.68,BR,1720031729
424,cide,41.8921,33.0044,296.53,69,100,2.45,TR,1720031730
425,kaka,37.3482,59.6143,301.75,16,7,2.4,TM,1720031731
426,kill devil hills,36.0307,-75.676,300.36,58,75,4.12,US,1720031733
427,argamasilla de calatrava,38.7384,-4.015,307.79,24,0,2.18,ES,1720031734
428,xanthi,41.1414,24.8836,299.71,77,24,3.09,GR,1720031736
429,umm kaddadah,13.6017,26.6876,310.74,17,99,1.32,SD,1720031737
430,wanxian,30.8039,108.3897,297.75,99,100,0.62,CN,1720031738
431,atafu village,-8.5421,-172.5159,301.98,77,32,10.01,TK,1720031740
432,bridlington,54.0831,-0.1919,290.11,84,87,5.95,GB,1720031741
433,letlhakane,-21.4167,25.5833,290.49,32,0,1.41,BW,1720031743
434,lauro de freitas,-12.8944,-38.3272,300.16,69,40,5.14,BR,1720031669
435,sagaing,21.8787,95.9797,300.62,71,100,6.66,MM,1720031745
436,codajas,-3.8367,-62.0569,304.13,60,97,1.23,BR,1720031748
437,saldanha,-33.0117,17.9442,286.18,78,0,4.48,ZA,1720031750
438,kalachinsk,55.0529,74.5751,288.23,97,49,5.24,RU,1720031751
439,omdurman,15.6445,32.4777,306.42,42,82,12.92,SD,1720031753
440,las lomitas,-24.7096,-60.593,305.71,28,0,5.01,AR,1720031754
441,itajobi,-21.3181,-49.0544,303.5,22,0,3.53,BR,1720031756
442,gamba,-2.65,10.0,294.46,90,100,2.74,GA,1720031757
443,kathmandu,27.7167,85.3167,296.27,100,75,1.03,NP,1720031502
444,sarnia,42.9787,-82.4041,301.45,69,100,5.66,CA,1720031637
445,mossel bay,-34.1831,22.146,285.11,76,96,7.69,ZA,1720031761
446,megion,61.0296,76.1136,284.16,77,0,2.2,RU,1720031764
447,floro,61.5996,5.0328,287.19,72,75,3.09,NO,1720031767
448,caconda,-13.7333,15.0667,289.73,26,10,0.81,AO,1720031768
449,fort st. john,56.2499,-120.8529,286.09,94,100,4.12,CA,1720031770
450,amos,48.5669,-78.1162,290.99,90,100,5.18,CA,1720031569
451,zhanga buqtyrma,49.6295,83.5248,284.89,89,81,1.57,KZ,1720031772
452,san luis de la loma,17.2706,-100.8939,302.22,69,100,2.41,MX,1720031774
453,assab,13.0092,42.7394,305.08,73,100,5.36,ER,1720031775
454,sokoni,-6.4333,39.55,298.79,79,57,7.2,TZ,1720031777
455,osan,37.1522,127.0706,297.09,94,75,2.57,KR,1720031778
456,fomboni,-12.28,43.7425,298.59,69,5,4.77,KM,1720031780
457,punta del este,-34.9667,-54.95,283.21,79,75,6.17,UY,1720031782
458,sao felix do xingu,-6.6447,-51.995,309.2,26,63,1.97,BR,1720031784
459,basoko,1.2391,23.616,298.94,67,51,1.42,CD,1720031785
460,howard springs,-12.497,131.047,295.1,64,0,4.33,AU,1720031787
461,north haven,41.3909,-72.8595,302.11,51,0,5.14,US,1720031788
462,brookings,44.3114,-96.7984,299.31,53,0,4.63,US,1720031637
463,chagoda,59.164,35.3285,289.03,81,37,2.64,RU,1720031791
464,wulingyuan,29.3494,110.5441,294.21,99,100,1.02,CN,1720031792
465,taltal,-25.4,-70.4833,288.03,80,52,2.26,CL,1720031794
466,bezerros,-8.2333,-35.7969,295.24,72,30,6.12,BR,1720031798
467,isiro,2.7739,27.616,294.97,79,44,0.6,CD,1720031800
468,darhan,49.4867,105.9228,295.14,50,80,2.19,MN,1720031801
469,isla mujeres,21.2311,-86.731,305.18,72,2,4.09,MX,1720031804
470,hithadhoo,-0.6,73.0833,301.96,76,14,2.48,MV,1720031805
471,tarawa,1.419,172.984,299.2,89,100,3.09,KI,1720031807
472,georgetown,5.4112,100.3354,300.9,79,20,0.0,MY,1720031689
473,oranjemund,-28.55,16.4333,287.65,82,88,0.98,,1720031810
474,kalmunai,7.4167,81.8167,300.34,81,100,4.63,LK,1720031811
475,bamboo flat,11.7,92.7167,299.2,94,75,2.57,IN,1720031812
476,magadan,59.5667,150.8,285.93,80,16,1.33,RU,1720031814
477,al jaradiyah,16.5795,42.9124,307.87,60,45,1.11,SA,1720031815
478,tadine,-21.55,167.8833,295.25,80,99,1.69,NC,1720031817
479,esfarayen,37.0765,57.5101,295.96,30,5,2.73,IR,1720031818
480,nahiyat al fuhud,30.9697,46.7228,310.41,15,0,5.14,IQ,1720031820
481,toliara,-23.35,43.6667,293.41,74,0,3.48,MG,1720031822
482,ancud,-41.8697,-73.8203,279.99,64,90,8.07,CL,1720031826
483,novyy urengoy,66.0833,76.6333,289.37,51,100,6.8,RU,1720031827
484,gubat,12.9206,124.1231,300.77,83,100,2.54,PH,1720031829
485,dawson creek,55.7666,-120.2362,285.95,88,100,5.14,CA,1720031610
486,shahrak,34.1074,64.3052,291.93,28,0,1.35,AF,1720031833
487,mazatlan,23.2167,-106.4167,303.13,70,20,3.6,MX,1720031586
488,gazojak,41.1875,61.4036,303.47,18,98,5.76,TM,1720031836
489,quellon,-43.1167,-73.6167,278.65,72,90,7.44,CL,1720031837
490,quincy,42.2529,-71.0023,303.8,38,0,4.63,US,1720031551
491,lagoa,39.05,-27.9833,293.39,74,6,5.58,PT,1720031840
492,ulverstone,-41.15,146.1667,277.35,76,0,2.94,AU,1720031713
493,yunyang,33.4474,112.7142,295.42,96,100,0.5,CN,1720031843
494,itoman,26.1247,127.6694,302.16,89,20,2.57,JP,1720031845
495,demba,-5.51,22.2667,297.12,32,93,1.44,CD,1720031846
496,humaita,-7.5061,-63.0208,310.09,25,33,1.55,BR,1720031847
497,fuling,29.7022,107.3919,298.02,96,89,0.22,CN,1720031849
498,togur,58.3631,82.8265,286.28,92,100,2.48,RU,1720031850
499,doka,13.5167,35.7667,295.56,83,93,2.45,SD,1720031852
500,igarka,67.4667,86.5833,283.9,64,55,3.77,RU,1720031853
501,cova figueira,14.8905,-24.2934,293.46,83,60,2.56,CV,1720031855
502,hobyo,5.3505,48.5268,298.51,82,16,12.59,SO,1720031856
503,acapulco de juarez,16.8634,-99.8901,305.05,62,75,3.6,MX,1720031644
504,fukuecho,32.6881,128.8419,298.01,95,7,5.47,JP,1720031859
505,los yebenes,39.5816,-3.8706,302.57,23,6,3.37,ES,1720031860
506,devonport,-41.1667,146.35,277.16,81,0,3.24,AU,1720031862
507,brak,27.5496,14.2714,308.92,18,4,4.07,LY,1720031863
508,roxborough park,39.4739,-105.0853,303.9,33,9,0.45,US,1720031865
509,altai,46.3722,96.2583,284.17,69,25,2.34,MN,1720031866
510,owen sound,44.5672,-80.9435,296.11,93,100,2.24,CA,1720031867
511,awjilah,29.1081,21.2869,303.3,35,0,7.13,LY,1720031869
512,talcahuano,-36.7167,-73.1167,283.97,62,20,4.12,CL,1720031670
513,guasdualito,7.2424,-70.7324,304.13,100,40,2.06,VE,1720031872
514,kodinsk,58.6881,99.1844,292.7,71,100,2.46,RU,1720031873
515,zanjan,36.6736,48.4787,295.98,40,20,7.2,IR,1720031875
516,basotu,-4.3667,35.0833,291.49,57,67,2.9,TZ,1720031876
517,arkalyk,50.2486,66.9114,289.21,71,0,3.58,KZ,1720031878
518,kutum,14.2,24.6667,301.77,37,100,3.54,SD,1720031879
519,adrar,20.5022,-10.0711,314.63,6,91,5.31,MR,1720031881
520,tofol,5.3248,163.0078,300.87,81,100,5.02,FM,1720031882
521,whakatane,-37.9585,176.9854,276.21,97,0,0.89,NZ,1720031883
522,kupang,-10.1667,123.5833,300.47,78,5,3.09,ID,1720031885
523,padang,-0.9492,100.3543,299.18,89,87,1.45,ID,1720031886
524,vila velha,-20.3297,-40.2925,302.02,99,20,5.66,BR,1720031640
525,yulinshi,38.2906,109.7494,294.52,60,8,5.37,CN,1720031889
526,ghat,24.9647,10.1728,309.28,7,85,2.4,LY,1720031891
527,inonu,37.3167,33.7667,298.03,40,0,3.23,TR,1720031892
528,juan griego,11.0817,-63.9655,293.22,100,45,2.57,VE,1720031893
529,pico truncado,-46.7949,-67.9573,276.27,56,7,14.66,AR,1720031895
530,coxim,-18.5067,-54.76,308.37,16,0,2.44,BR,1720031896
531,copiapo,-27.3667,-70.3333,300.61,24,45,3.25,CL,1720031813
532,gaigeturi,33.4644,126.3183,297.18,94,73,1.54,KR,1720031899
533,bestobe,52.4994,73.0975,288.89,86,100,5.06,KZ,1720031900
534,richards bay,-28.783,32.0377,296.45,41,0,5.03,ZA,1720031902
535,hirara,24.8,125.2833,301.07,94,20,1.54,JP,1720031903
536,stony plain,53.5334,-114.0021,290.0,77,75,5.66,CA,1720031905
537,camalu,30.85,-116.0667,301.29,71,18,3.63,MX,1720031906
538,nantucket,41.2835,-70.0995,299.34,56,0,5.66,US,1720031776
539,garhwa,24.1833,83.8167,300.44,80,100,3.26,IN,1720031911
540,akrehamn,59.2667,5.1833,287.71,67,40,4.12,NO,1720031912
541,murun-kuren,49.6342,100.1625,289.79,85,100,0.96,MN,1720031913
542,spassk,52.747,87.7545,286.19,97,96,0.95,RU,1720031915
543,grenaa,56.4158,10.8783,289.79,74,100,3.19,DK,1720031916
544,bardai,11.65,7.2333,299.72,66,66,2.16,NG,1720031918
545,chechat,24.7667,75.8833,301.0,82,100,6.18,IN,1720031919
546,tobelo,1.7284,128.0095,299.27,83,100,1.82,ID,1720031727
547,yazd,31.8972,54.3675,310.21,12,40,5.14,IR,1720031922
548,ulaangom,49.9811,92.0667,288.59,75,100,2.05,MN,1720031924
549,plastun,44.7561,136.2939,289.59,75,100,0.52,RU,1720031925
550,carauari,-4.8828,-66.8958,305.77,48,94,0.64,BR,1720031926
551,mar del plata,-38.0023,-57.5575,283.76,70,75,2.57,AR,1720031500
552,puerto real,36.5282,-6.1901,307.22,54,0,4.12,ES,1720031929
553,dunay,42.8803,132.3375,289.07,93,96,2.88,RU,1720031931
554,tamandare,-8.7597,-35.1047,298.63,77,49,5.03,BR,1720031932
555,mata-utu,-13.2816,-176.1745,301.35,79,17,10.41,WF,1720031934
556,brisas de zicatela,15.8369,-97.0419,303.44,74,75,0.0,MX,1720031935
557,extrema,-22.8547,-46.3183,297.1,36,0,2.04,BR,1720031937
558,pisco,-13.7,-76.2167,290.18,82,100,3.09,PE,1720031641
559,'alaqahdari dishu,30.4374,63.313,309.91,12,0,3.21,AF,1720031941
560,zhezqazghan,47.7833,67.7667,295.47,53,75,3.0,KZ,1720031942
561,vilyuysk,63.7553,121.6247,281.63,72,2,2.33,RU,1720031944
562,bougaa,36.3329,5.0884,299.14,45,17,3.21,DZ,1720031945
563,puerto aysen,-45.4,-72.7,275.76,95,100,2.89,CL,1720031913
564,marka,1.7159,44.7717,298.7,79,100,8.38,SO,1720031948
565,braganca,-1.0536,-46.7656,301.78,68,100,2.57,BR,1720031950
566,holualoa,19.6228,-155.9522,297.35,78,40,0.0,US,1720031777
567,piriapolis,-34.8682,-55.2744,283.24,78,75,6.17,UY,1720031952
568,zakynthos,37.7914,20.8953,298.77,69,20,4.12,GR,1720031954
